[
  {
    "address": "Amadys, Amadys Belgium Headquarter, \"Sint-Pietersvliet 7, 2000 Antwerpen, Belgium",
    "lat": 51.2255797,
    "lng": 4.4008959
  },
  {
    "address": "Telenco UK, Hillmead Enterprise Park, Unit 3 Westerngate, Langley Rd, Swindon, SN5 5WN, UK",
    "lat": 51.5731149,
    "lng": -1.8345897
  },
  {
    "address": "Gigabit Utility Supplies, Unit 3, Crags Industrial Park, Morven Street, Creswell, S80 4AJ, UK",
    "lat": 53.2595463,
    "lng": -1.2132101
  },
  {
    "address": "PMD Business Finance, 2 Howarth Court, Gateway Crescent, Oldham, OL9 9XB, UK",
    "lat": 53.5321599,
    "lng": -2.1660602
  },
  {
    "address": "CBI Electric Telecom Cables (Pty) Ltd, 3 Marthinus Ras Street, Industrial Sites, Brits, North West Province",
    "lat": -25.6448909,
    "lng": 27.8049482
  },
  {
    "address": "D.J.Global Creation Co. Ltd, 137/79-80 Moo 1 Nanthanagarden Soi 12, Pathumthani-Rangsit Road, Banklang Muang Pathumthani, Pathumthani 12000, Thailand",
    "lat": 13.9781671,
    "lng": 100.654634
  },
  {
    "address": "Paviot Equipment,16 Rue Des Taillées, 79180 Chauray, France",
    "lat": 46.3415784,
    "lng": -0.3727707
  },
  {
    "address": "Exceed Solutions P.C., 76 Ymittou Street, Athens, Greece",
    "lat": 37.968492,
    "lng": 23.7513432
  },
  {
    "address": "GA Telecomunicazioni, Via dante Alighieri, 6, 20050 – Sovico (MI), Italy",
    "lat": 45.6482765,
    "lng": 9.257092199999999
  },
  {
    "address": "Fibrain Sp.z o.o., Zaczernie 190F, 36-062 Zaczernie, Poland",
    "lat": 50.10614349999999,
    "lng": 22.0093285
  },
  {
    "address": "Teledatanet srl, Blvd 21 Decembrie 1989, Nr. 140-155, Cluj-Napoca, RO-400604, Romania",
    "lat": 46.7759807,
    "lng": 23.6088889
  },
  {
    "address": "Argano Group, Calle Serranía de Ronda, 15, 28691 Villanueva de la Cañada, Madrid, Spain",
    "lat": 40.4376901,
    "lng": -4.0038158
  },
  {
    "address": "MFS-Tech, Hungerbuhlstrasse 10, CH-8500 Frauenfeld, Switzerland",
    "lat": 47.5627098,
    "lng": 8.873279799999999
  },
  {
    "address": "Helsingin Laatulaite Oy, Päivöläntie 39, 00730 Helsinki, Finland",
    "lat": 60.26627269999999,
    "lng": 25.025201
  },
  {
    "address": "General Machine Products (KT), LLC (GMP), 3111 Old Lincoln Hwy, Trevose, Pa 19053-4996, USA",
    "lat": 40.1334726,
    "lng": -74.9733869
  },
  {
    "address": "Midland Site Supplies, Old Bacon Factory, Castleholding, Rosecrea, Eire, UK",
    "lat": 52.95946199999999,
    "lng": -7.794541400000001
  },
  {
    "address": "Testronix Inc., Unit 415 VGP Center, (Formerly Manila Bank Building), 6772 Ayala Avenue, Makati City 1226, Philippines",
    "lat": 14.5569393,
    "lng": 121.020295
  },
  {
    "address": "DM Optics, The Hive, 6 Beaufighter Road, Weston-Super-Mare, BS24 8EE, England",
    "lat": 51.34211579999999,
    "lng": -2.9350976
  },
  {
    "address": "Thorne & Derrick International, 7 Lumley Court, Drum Industrial Estate, Chester-le-Street, DH2 1AN, England",
    "lat": 54.871272,
    "lng": -1.5911443
  },
  {
    "address": "Vallin, Latgales iela 322, Riga, LV-1063, Latvia",
    "lat": 56.9041404,
    "lng": 24.1920312
  },
  {
    "address": "Vallin SIA, Tarandes 2 – 13, LT-14188, Vilnius, Lithuania",
    "lat": 54.7499038,
    "lng": 25.2128579
  },
  {
    "address": "Mejdaf, Anas Bin Malek Rd, Riyadh, KSA, Saudi Arabia",
    "lat": 24.8078155,
    "lng": 46.6174648
  },
  {
    "address": "Advanced Optics Limited, Courtyard Mews, Piccadilly Place, Bath, BA1 6PL, United Kingdom",
    "lat": 51.3923164,
    "lng": -2.3515055
  },
  {
    "address": "Digatel Telecoms, Avenida Real de Pinto 91-A16, Madrid, 28021, Spain",
    "lat": 40.334044,
    "lng": -3.7121703
  }
]